[{"latitude":"-33.83453","longitude":"151.02143","address1":"15-21 Parramatta Road"},{"latitude":"-35.29788","longitude":"149.18814","address1":"Lot 4, Spitfire Ave"},{"latitude":"50.70462","longitude":"-113.94719","address1":"202-104 Southbank Blvd"},{"latitude":"51.21129","longitude":"-113.98435","address1":"300-293020 Crossiron Blvd"},{"latitude":"53.50658","longitude":"-113.68875","address1":"7259 Winterburn Rd NW"},{"latitude":"53.57892","longitude":"-113.57813","address1":"12450 149th St NW"},{"latitude":"53.5958","longitude":"-113.4149","address1":"13650 50th Street"},{"latitude":"49.66176","longitude":"-112.79488","address1":"3200 Mayor Magrath Drive South"},{"latitude":"52.21268","longitude":"-113.81855","address1":"162 Leva Ave"},{"latitude":"50.989","longitude":"-114.0455","address1":"99 Heritage Gate SE"},{"latitude":"55.1693","longitude":"-118.8453","address1":"9901 116th St"},{"latitude":"53.4552","longitude":"-113.4687","address1":"2616 91st Street NW"},{"latitude":"51.1552","longitude":"-114.1565","address1":"11588 Sarcee Trail NW"},{"latitude":"53.547","longitude":"-113.3184","address1":"2201 Broadmoor Blvd"},{"latitude":"51.07865","longitude":"-113.9899","address1":"2853 32nd Street NE"},{"latitude":"50.06977","longitude":"-110.74089","address1":"2350 Box Springs Blvd"},{"latitude":"49.71274","longitude":"-124.96128","address1":"588 Crown Isle Blvd"},{"latitude":"49.23745","longitude":"-124.04681","address1":"6700 Island Highway North"},{"latitude":"53.883","longitude":"-122.77131","address1":"2555 Range Road"},{"latitude":"50.65563","longitude":"-120.38939","address1":"1675 Versatile Drive"},{"latitude":"49.0228","longitude":"-122.2663","address1":"1127 Sumas Way"},{"latitude":"49.2565","longitude":"-122.7453","address1":"2370 Ottawa St."},{"latitude":"48.45785","longitude":"-123.5015","address1":"799 McCallum Road"},{"latitude":"49.1196","longitude":"-122.655","address1":"20499 64th Ave"},{"latitude":"49.2515","longitude":"-122.9181","address1":"3550 Brighton Avenue"},{"latitude":"49.1926","longitude":"-123.12238","address1":"9151 Bridgeport Road"},{"latitude":"49.2609","longitude":"-123.0001","address1":"4500 Still Creek Dr"},{"latitude":"49.1388","longitude":"-122.8466","address1":"7423 King George Highway"},{"latitude":"49.2785","longitude":"-123.1096","address1":"605 Expo Blvd"},{"latitude":"49.8878","longitude":"-119.42282","address1":"2479 Highway 97 N"},{"latitude":"49.89648","longitude":"-97.05676","address1":"1499 Regent Avenue West"},{"latitude":"49.81983","longitude":"-97.20596","address1":"2365 McGillivray Blvd"},{"latitude":"49.9041","longitude":"-97.1992","address1":"1315 St. James Street"},{"latitude":"45.30305","longitude":"-66.02714","address1":"300 Retail Drive"},{"latitude":"45.92761","longitude":"-66.66241","address1":"25 Wayne Squibb Blvd"},{"latitude":"46.1176","longitude":"-64.829","address1":"25 Trinity Drive"},{"latitude":"47.61578","longitude":"-52.71817","address1":"28 Stavanger Drive"},{"latitude":"44.6561","longitude":"-63.676","address1":"230 Chain Lake Drive"},{"latitude":"44.70656","longitude":"-63.56698","address1":"137 Countryview Drive"},{"latitude":"43.22982","longitude":"-79.94714","address1":"100 Legend Court"},{"latitude":"43.90353","longitude":"-78.85537","address1":"130 Ritson Rd North"},{"latitude":"43.8459","longitude":"-79.3547","address1":"#1 York Tech Drive"},{"latitude":"43.8646","longitude":"-79.0193","address1":"150 Kingston Road East"},{"latitude":"43.6825","longitude":"-79.712","address1":"100 Biscayne Crescent"},{"latitude":"44.33584","longitude":"-79.68212","address1":"41 Mapleview Drive East"},{"latitude":"43.3439","longitude":"-79.8227","address1":"1225 Brant Street"},{"latitude":"46.50421","longitude":"-80.9458","address1":"1465 Kingsway"},{"latitude":"42.919","longitude":"-81.2113","address1":"4313 Wellington Road South"},{"latitude":"44.0709","longitude":"-79.4888","address1":"18182 Yonge Street"},{"latitude":"45.415","longitude":"-75.6024","address1":"1900 Cyrville Road"},{"latitude":"43.4069","longitude":"-80.3925","address1":"4438 King Street East"},{"latitude":"43.1779","longitude":"-79.2478","address1":"3 North Service Road"},{"latitude":"43.6232","longitude":"-79.5073","address1":"50 Queen Elizabeth Blvd"},{"latitude":"43.612","longitude":"-79.6913","address1":"5900 Rodeo Drive"},{"latitude":"42.9873","longitude":"-81.2933","address1":"693 Wonderland Road North"},{"latitude":"43.5211","longitude":"-79.6878","address1":"3180 Laird Road"},{"latitude":"44.2608","longitude":"-76.5601","address1":"1015 Centennial Drive"},{"latitude":"42.2549","longitude":"-82.96556","address1":"4411 Walker Road"},{"latitude":"43.7307","longitude":"-79.4549","address1":"100 Billy Bishop Way"},{"latitude":"43.759","longitude":"-79.2967","address1":"1411 Warden Avenue"},{"latitude":"45.338","longitude":"-75.7235","address1":"1849 Merivale Road"},{"latitude":"45.3025","longitude":"-75.912","address1":"770 Silver Seven Rd"},{"latitude":"43.8514","longitude":"-79.2522","address1":"65 Kirkham Dr"},{"latitude":"43.7863","longitude":"-79.542","address1":"71 Colossus Drive"},{"latitude":"44.27162","longitude":"-78.34327","address1":"485 The Parkway"},{"latitude":"43.9015","longitude":"-79.3923","address1":"35 John Birchall Rd"},{"latitude":"45.90975","longitude":"-72.50954","address1":"105 Rue-Robert-Bernard"},{"latitude":"45.5053","longitude":"-73.4312","address1":"5025 boul Cousineau"},{"latitude":"46.8395","longitude":"-71.2685","address1":"440 rue Bouvier"},{"latitude":"45.5733","longitude":"-73.757","address1":"2999 autoroute Laval (440 Ouest)"},{"latitude":"45.609","longitude":"-73.585","address1":"7373 rue Bombardier"},{"latitude":"45.3929","longitude":"-71.9522","address1":"3400 rue King Ouest"},{"latitude":"45.4862","longitude":"-73.5527","address1":"300 rue Bridge"},{"latitude":"46.7808","longitude":"-71.3279","address1":"3233 rue Watt"},{"latitude":"46.33141","longitude":"-72.57098","address1":"3000 boul des Récollets"},{"latitude":"45.4341","longitude":"-73.479","address1":"9430 boul Taschereau"},{"latitude":"45.7211","longitude":"-73.5062","address1":"870 montée des Pionniers"},{"latitude":"45.5358","longitude":"-73.66083","address1":"1015 rue du Marché Central"},{"latitude":"45.47","longitude":"-73.819","address1":"5701 Trans-Canada Nord"},{"latitude":"45.7648","longitude":"-74.019","address1":"1001 boul Jean-Baptiste-Rolland"},{"latitude":"45.5767","longitude":"-73.4055","address1":"635 Chemin de Touraine"},{"latitude":"48.383","longitude":"-71.0845","address1":"2500 boul Talbot RR4"},{"latitude":"45.4753","longitude":"-75.701","address1":"1100 boul Maloney ouest"},{"latitude":"45.6315","longitude":"-73.85","address1":"3600 Ave Des Grandes Tourelles"},{"latitude":"45.371","longitude":"-73.5168","address1":"60 rue Strasbourg"},{"latitude":"52.19458","longitude":"-106.67486","address1":"115 Marquis Drive"},{"latitude":"50.4452","longitude":"-104.5483","address1":"665 University Park Drive"},{"latitude":"35.65522","longitude":"140.02793","address1":"1-4 Toyosuna, Mihama-ku"},{"latitude":"33.65236","longitude":"130.48694","address1":"1152-1 Takayanagi Yamada"},{"latitude":"42.97743","longitude":"141.46642","address1":"9-3-1 Utsukushigaoka Ichijyou"},{"latitude":"34.66978","longitude":"135.05677","address1":"868-26 Aza-Kodukayama"},{"latitude":"34.74207","longitude":"135.44378","address1":"3-13-55 Tsugiya"},{"latitude":"35.48213","longitude":"139.4253","address1":"1-13-3 Higashihara"},{"latitude":"35.36266","longitude":"139.64704","address1":"2-6 Sachiura, Kanazawa-ku"},{"latitude":"35.52223","longitude":"139.73236","address1":"3-1-4 Ikegamishin-machi"},{"latitude":"35.86248","longitude":"139.86402","address1":"3-1-2 Lala City Shinmisato"},{"latitude":"35.81118","longitude":"139.3791","address1":"3169-2 Miyadera"},{"latitude":"36.33299","longitude":"139.09327","address1":"137-2 Tsurukoji-machi"},{"latitude":"35.6012","longitude":"139.37661","address1":"3-6-1 Oyamagaoka"},{"latitude":"34.84138","longitude":"135.71518","address1":"5 Kinmeidai Kita"},{"latitude":"35.17885","longitude":"129.11544","address1":"195-1 Mangmi-dong, Suyeong-gu"},{"latitude":"35.90655","longitude":"128.61819","address1":"1817 Sankyock-dong"},{"latitude":"36.3241","longitude":"127.40352","address1":"116-3 Oryu-dong"},{"latitude":"37.42206","longitude":"126.88421","address1":"163-3 The Whole Area, Iljik-Dong"},{"latitude":"37.64067","longitude":"126.78836","address1":"1312 Baeksoek-dong"},{"latitude":"37.5278","longitude":"126.89214","address1":"65, 3ga Yangpyung-dong"},{"latitude":"37.46205","longitude":"127.03612","address1":"217-6 Yangjae-dong"},{"latitude":"37.59693","longitude":"127.09026","address1":"81 Sangbong-dong"},{"latitude":"35.56612","longitude":"129.35706","address1":"283-3, Jinjang-dong, Buk-gu"},{"latitude":"21.88092","longitude":"-102.29395","address1":"Blvd. Aguascalientes Norte 802"},{"latitude":"32.60252","longitude":"-115.3896","address1":"Carr. San Luis Rio Col Km. 7.5"},{"latitude":"32.53086","longitude":"-117.03736","address1":"Av. Calle de la Rocas 8351"},{"latitude":"32.53086","longitude":"-117.03736","address1":"Blvd. Rodolfo Sanchez Tab. 8943"},{"latitude":"31.86545","longitude":"-116.59339","address1":"Carr. Transpeninsular La Paz 4179"},{"latitude":"22.90339","longitude":"-109.88202","address1":"Carr. Transpenisular Km. 4.5"},{"latitude":"31.75774","longitude":"-106.50904","address1":"Rancho Aguacaliente 6911"},{"latitude":"28.69565","longitude":"-106.13132","address1":"Av de la Juventud # 7513"},{"latitude":"21.12161","longitude":"-101.68206","address1":"Blvd. Juan Torres Landa 4137"},{"latitude":"20.54528","longitude":"-100.82011","address1":"Av. Tecnologico 651"},{"latitude":"16.7877","longitude":"-99.79623","address1":"Blvd. de las Naciones Lote 34A"},{"latitude":"20.6151","longitude":"-103.44833","address1":"Av. Vallarta 4775"},{"latitude":"20.61054","longitude":"-105.23372","address1":"Av. Fluvial Vallarta 134"},{"latitude":"20.64721","longitude":"-103.40542","address1":"Blvd Adolfo Lopez Mateos 3100"},{"latitude":"19.49879","longitude":"-99.28515","address1":"Circuito Centro Comercial 2001"},{"latitude":"19.26351","longitude":"-99.63968","address1":"Calle Av SS Juan Pablo II N. 501 N"},{"latitude":"19.40487","longitude":"-99.27156","address1":"Av. Magnocentro no. 4"},{"latitude":"19.55014","longitude":"-99.20138","address1":"Calle San Nicolas 10"},{"latitude":"19.33258","longitude":"-99.14447","address1":"Calle Puente 186"},{"latitude":"19.3749","longitude":"-99.19179","address1":"Blvd. Adolfo Lopez Mateos 1181"},{"latitude":"20.62134","longitude":"-103.37331","address1":"Blvd. M. de Cervantes Saavedra 397"},{"latitude":"19.37563","longitude":"-99.21338","address1":"Periferico Independencia 1000"},{"latitude":"18.92328","longitude":"-99.23488","address1":"Av. Vicente Guerrero 205"},{"latitude":"21.12161","longitude":"-101.68206","address1":"Lazaro Cardenas 800"},{"latitude":"25.67083","longitude":"-100.30953","address1":"Alejandro de Rodas 6767"},{"latitude":"19.05102","longitude":"-98.1751","address1":"Blvd. del Nino Poblano 2904"},{"latitude":"20.59411","longitude":"-100.39231","address1":"Blvd. Bernardo Quintana A. 4107"},{"latitude":"21.14859","longitude":"-86.83591","address1":"Av. Kabah Esq. Av. Yaxchilan"},{"latitude":"22.15202","longitude":"-100.97657","address1":"Av. Chapultepec 200"},{"latitude":"29.08109","longitude":"-110.95197","address1":"Av. Luis Donaldo Colosio 416"},{"latitude":"19.53204","longitude":"-96.91364","address1":"Carr. Xalapa-Veracruz 366"},{"latitude":"19.10416","longitude":"-96.10604","address1":"Blvd Adolfo Ruiz Cortinez 1228"},{"latitude":"20.9887","longitude":"-89.65681","address1":"Calle 60 No. 220"},{"latitude":"18.40005","longitude":"-65.99785","address1":"1185 Ave 65 Infanteria"},{"latitude":"18.24728","longitude":"-66.02332","address1":"200 Avenida Rafael Cordero #140"},{"latitude":"18.40397","longitude":"-66.19455","address1":"PR-2, Km 15.5"},{"latitude":"18.38472","longitude":"-66.13872","address1":"125 Calle A"},{"latitude":"24.79397","longitude":"121.01323","address1":"188 Cihyun Rd, East District"},{"latitude":"22.65615","longitude":"120.30336","address1":"No. 111, Dashun 1st Rd"},{"latitude":"22.62028","longitude":"120.31263","address1":"656 Chung Hwa 5th Road"},{"latitude":"24.1329","longitude":"120.64979","address1":"289 Wenxin South 3 Rd"},{"latitude":"25.06476","longitude":"121.57608","address1":"No. 268, Jiu Zong"},{"latitude":"25.05555","longitude":"121.63345","address1":"No 158, Sec 1, Da Tung Road"},{"latitude":"25.00246","longitude":"121.49222","address1":"No. 347, Sec. 2, Chung-Shan Road"},{"latitude":"23.00839","longitude":"120.19006","address1":"No. 8, Hewei Rd Sec. 4"},{"latitude":"25.04715","longitude":"121.29421","address1":"No. 323, Sec 1, Nankan Rd"},{"latitude":"51.3561","longitude":"-0.11944","address1":"Imperial Way"},{"latitude":"52.39897","longitude":"-1.56097","address1":"51 Torrington Ave"},{"latitude":"52.68392","longitude":"-1.09968","address1":"3 Westmoreland Ave"},{"latitude":"50.91565","longitude":"-1.43956","address1":"Regents Park Road"},{"latitude":"51.48262","longitude":"0.28068","address1":"West Thurrock Way"},{"latitude":"51.66597","longitude":"-0.36234","address1":"Hartspring Lane"},{"latitude":"53.4142","longitude":"-2.999","address1":"30 Waterloo Rd"},{"latitude":"53.46993","longitude":"-2.34909","address1":"Barton Dock Road"},{"latitude":"53.78803","longitude":"-1.53545","address1":"Leathley Road"},{"latitude":"53.47586","longitude":"-2.66154","address1":"Andover Road"},{"latitude":"54.95995","longitude":"-1.66489","address1":"Mandela Way"},{"latitude":"52.91793","longitude":"-1.44076","address1":"Wyvern Way"},{"latitude":"53.52805","longitude":"-2.15903","address1":"The Broadway Chadderton"},{"latitude":"51.6087","longitude":"-0.0339","address1":"1 Shadbolt Avenue"},{"latitude":"51.42105","longitude":"-0.98099","address1":"100 South Oak Way"},{"latitude":"52.502","longitude":"-1.854","address1":"100 Watson Road Neachells"},{"latitude":"51.50005","longitude":"-2.69636","address1":"St Brendan's Way"},{"latitude":"52.0373","longitude":"-0.68867","address1":"Mandeville Drive"},{"latitude":"53.384","longitude":"-1.4223","address1":"Unit 8 Parkway One Parkway Dr"},{"latitude":"53.18813","longitude":"-2.89436","address1":"Dunkirk Trading Estate"},{"latitude":"55.8753","longitude":"-4.2325","address1":"15 Cobden Rd"},{"latitude":"55.879","longitude":"-3.1678","address1":"Pentland Road"},{"latitude":"57.14823","longitude":"-2.28008","address1":"Arnhall Business Park"},{"latitude":"51.48126","longitude":"-3.18066","address1":"Capital Retail Park"},{"latitude":"32.36388","longitude":"-86.15088","address1":"8251 Eastchase Parkway"},{"latitude":"34.7433","longitude":"-86.6025","address1":"1205 N. Memorial Parkway"},{"latitude":"33.37898","longitude":"-86.81157","address1":"3650 Galleria Circle"},{"latitude":"61.1437","longitude":"-149.88538","address1":"330 West Dimond Blvd"},{"latitude":"58.3587","longitude":"-134.48284","address1":"5225 Commercial Boulevard"},{"latitude":"61.21055","longitude":"-149.80377","address1":"4125 DeBarr Road"},{"latitude":"33.38922","longitude":"-111.66768","address1":"1444 S Sossaman Rd"},{"latitude":"33.60386","longitude":"-111.98628","address1":"4570 E Cactus Rd"},{"latitude":"32.18013","longitude":"-110.94706","address1":"1650 E Tucson Marketplace"},{"latitude":"32.2519","longitude":"-110.859","address1":"6255 East Grant Road"},{"latitude":"33.6235","longitude":"-111.9012","address1":"15255 North Hayden Road"},{"latitude":"32.3263","longitude":"-111.0493","address1":"3901 West Costco Drive"},{"latitude":"33.3476","longitude":"-111.962","address1":"1445 West Elliot Road"},{"latitude":"33.4738","longitude":"-111.9851","address1":"4502 East Oak Street"},{"latitude":"34.548","longitude":"-112.3972","address1":"3911 Highway 69"},{"latitude":"33.3765","longitude":"-111.8409","address1":"1415 North Arizona Avenue"},{"latitude":"33.6599","longitude":"-112.1162","address1":"19001 N. 27th Ave"},{"latitude":"33.296","longitude":"-111.746","address1":"2887 S Market St"},{"latitude":"33.51956","longitude":"-112.09414","address1":"1646 W. Montebello"},{"latitude":"33.6428","longitude":"-112.2325","address1":"17550 N. 79th Ave."},{"latitude":"33.4672","longitude":"-112.274","address1":"10000 W. McDowell Road"},{"latitude":"33.2939","longitude":"-111.8997","address1":"595 S Galleria Way"},{"latitude":"33.6708","longitude":"-112.028","address1":"2450 E Beardsley Rd"},{"latitude":"33.49144","longitude":"-112.13004","address1":"3801 N. 33rd Avenue"},{"latitude":"38.89331","longitude":"-104.71775","address1":"5885 Barnes Road"},{"latitude":"39.5586","longitude":"-104.77653","address1":"18414 Cottonwood Dr"},{"latitude":"39.64444","longitude":"-105.00934","address1":"4000 River Point Parkway"},{"latitude":"38.90355","longitude":"-104.81712","address1":"5050 N Nevada Ave"},{"latitude":"39.69","longitude":"-104.868","address1":"1471 South Havana St."},{"latitude":"39.862","longitude":"-105.0658","address1":"6400 West 92nd Avenue"},{"latitude":"39.6373","longitude":"-105.0859","address1":"7900 West Quincy Avenue"},{"latitude":"39.558","longitude":"-104.8765","address1":"8686 Park Meadows Center Drive"},{"latitude":"39.959","longitude":"-105.1737","address1":"600 Marshall Road"},{"latitude":"39.991","longitude":"-104.9825","address1":"16375 N Washington St"},{"latitude":"39.64349","longitude":"-106.89675","address1":"170 Cooley Mesa Rd"},{"latitude":"39.7894","longitude":"-105.083","address1":"5195 Wadsworth Blvd."},{"latitude":"41.44255","longitude":"-73.4056","address1":"200 Federal Road"},{"latitude":"41.2491","longitude":"-73.02359","address1":"1718 Boston Post Road"},{"latitude":"41.5398","longitude":"-72.9686","address1":"3600 East Main Street"},{"latitude":"41.092","longitude":"-73.452","address1":"779 Connecticut Ave"},{"latitude":"41.9935","longitude":"-72.576","address1":"75 Freshwater Blvd"},{"latitude":"39.677","longitude":"-75.6478","address1":"900 Center Boulevard"},{"latitude":"38.92052","longitude":"-76.95317","address1":"2441 Market St NE"},{"latitude":"25.6542","longitude":"-80.4126","address1":"13450 SW 120th St"},{"latitude":"30.46339","longitude":"-84.21582","address1":"4067 Lagniappe Way"},{"latitude":"27.23241","longitude":"-82.49545","address1":"8201 S Tamiami Trail Unit 501"},{"latitude":"26.589","longitude":"-80.0714","address1":"1873 West Lantana Road"},{"latitude":"25.9236","longitude":"-80.2984","address1":"16580 NW 59th Avenue"},{"latitude":"25.91031","longitude":"-80.15724","address1":"14585 Biscayne Boulevard"},{"latitude":"28.66167","longitude":"-81.4176","address1":"741 Orange Avenue"},{"latitude":"28.4032","longitude":"-81.40498","address1":"2101 Waterbridge Blvd"},{"latitude":"28.5988","longitude":"-81.3001","address1":"3333 University Boulevard"},{"latitude":"27.9567","longitude":"-82.728","address1":"2655 Gulf to Bay Blvd."},{"latitude":"26.4123","longitude":"-80.101","address1":"17800 Congress Avenue"},{"latitude":"26.545","longitude":"-81.874","address1":"7171 Cypress Lake Drive"},{"latitude":"26.2198","longitude":"-81.775","address1":"6275 Naples Boulevard"},{"latitude":"30.2522","longitude":"-81.5345","address1":"4901 Gate Parkway"},{"latitude":"27.92152","longitude":"-82.3304","address1":"10921 Causeway Blvd."},{"latitude":"26.48871","longitude":"-81.7863","address1":"10088 Gulf Center Drive"},{"latitude":"26.68122","longitude":"-80.22616","address1":"11001 Southern Blvd."},{"latitude":"26.0098","longitude":"-80.3601","address1":"15915 Pines Blvd"},{"latitude":"26.2739","longitude":"-80.1494","address1":"1800 West Sample Road"},{"latitude":"26.0969","longitude":"-80.248","address1":"1890 South University Drive"},{"latitude":"25.7744","longitude":"-80.3305","address1":"8300 Park Boulevard"},{"latitude":"26.8071","longitude":"-80.0871","address1":"3250 Northlake Boulevard"},{"latitude":"34.96807","longitude":"-85.19528","address1":"100 Cobb Parkway"},{"latitude":"33.87277","longitude":"-84.33473","address1":"500 Brookhaven Ave"},{"latitude":"33.52255","longitude":"-82.02571","address1":"825 Alexander Dr"},{"latitude":"33.9475","longitude":"-84.14385","address1":"3980 Venture Drive"},{"latitude":"33.9291","longitude":"-84.3535","address1":"6350 Peachtree Dunwoody Rd N.E."},{"latitude":"34.005","longitude":"-84.5703","address1":"645 Barrett Parkway NW"},{"latitude":"34.06122","longitude":"-83.99546","address1":"1550 Mall of Georgia Blvd NE"},{"latitude":"33.5718","longitude":"-84.3342","address1":"1700 Mount Zion Road"},{"latitude":"33.88138","longitude":"-84.46706","address1":"2900 Cumberland Mall"},{"latitude":"34.0905","longitude":"-84.2785","address1":"2855 Jordan Ct"},{"latitude":"21.32734","longitude":"-158.0881","address1":"4589 Kapolei Parkway"},{"latitude":"20.8874","longitude":"-156.45007","address1":"540 Haleakala Highway"},{"latitude":"21.28413","longitude":"-157.71037","address1":"333A Keahole Street"},{"latitude":"19.6858","longitude":"-156.0171","address1":"73-5600 Maiau Street"},{"latitude":"21.4271","longitude":"-157.9998","address1":"94-1231 Ka Uka Blvd"},{"latitude":"21.96773","longitude":"-159.38231","address1":"4300 Nuhou St"},{"latitude":"21.3182","longitude":"-157.8705","address1":"525 Alakawa Street"},{"latitude":"42.90573","longitude":"-112.46411","address1":"305 West Quinn Rd"},{"latitude":"42.59207","longitude":"-114.46631","address1":"731 Pole Line Road"},{"latitude":"43.6147","longitude":"-116.5902","address1":"16700 N Marketplace Blvd"},{"latitude":"43.5855","longitude":"-116.2757","address1":"2051 S. Cole Road"},{"latitude":"47.70814","longitude":"-116.78224","address1":"355 East Neider Avenue"},{"latitude":"41.90996","longitude":"-88.34014","address1":"221 S. Randall Rd"},{"latitude":"42.23724","longitude":"-87.90284","address1":"25901 Riverwoods Rd"},{"latitude":"41.90883","longitude":"-87.83635","address1":"8400 W North Ave"},{"latitude":"41.72634","longitude":"-88.0331","address1":"830 E Boughton Rd"},{"latitude":"41.86209","longitude":"-87.66729","address1":"1430 S Ashland Ave"},{"latitude":"40.66857","longitude":"-89.58308","address1":"301 West Washington"},{"latitude":"41.746","longitude":"-88.2042","address1":"1320 S. Route 59"},{"latitude":"42.1086","longitude":"-87.822","address1":"2900 Patriot Blvd"},{"latitude":"41.9404","longitude":"-88.134","address1":"505 W. Army Trail Road"},{"latitude":"42.187","longitude":"-88.0929","address1":"680 S. Rand Road"},{"latitude":"41.9299","longitude":"-87.6768","address1":"2746 N. Clybourn Avenue"},{"latitude":"41.759","longitude":"-87.7444","address1":"7300 S. Cicero Ave"},{"latitude":"42.0145","longitude":"-87.7801","address1":"7311 North Melvina Ave"},{"latitude":"42.0552","longitude":"-88.043","address1":"1375 North Meacham Rd"},{"latitude":"41.8455","longitude":"-87.965","address1":"1901 West 22nd Street"},{"latitude":"41.6001","longitude":"-87.8609","address1":"9915 W 159th St"},{"latitude":"42.179","longitude":"-88.3383","address1":"250 N. Randall Rd."},{"latitude":"42.08307","longitude":"-87.93675","address1":"999 N. Elmhurst Road"},{"latitude":"39.9137","longitude":"-86.0625","address1":"6110 East 86th Street"},{"latitude":"39.917","longitude":"-86.2269","address1":"9010 Michigan Road"},{"latitude":"41.47388","longitude":"-87.32194","address1":"1310 E. 79th Ave"},{"latitude":"41.70052","longitude":"-91.61243","address1":"2900 Heartland Dr"},{"latitude":"41.56149","longitude":"-93.80655","address1":"7205 Mills Civic Parkway"},{"latitude":"38.95847","longitude":"-94.7333","address1":"9350 Marshall Drive"},{"latitude":"38.9068","longitude":"-94.6715","address1":"12221 Blue Valley Parkway"},{"latitude":"38.31496","longitude":"-85.57507","address1":"5020 Norton Healthcare Blvd"},{"latitude":"39.18673","longitude":"-76.79493","address1":"6675 Marie Curie Drive"},{"latitude":"38.67055","longitude":"-76.87321","address1":"16006 Crain Highway SE"},{"latitude":"38.91824","longitude":"-76.84287","address1":"2400 Five Lees Lane"},{"latitude":"39.03672","longitude":"-77.05527","address1":"11160 Veirs Mill Rd"},{"latitude":"39.196","longitude":"-76.599","address1":"575 East Ordnance Road"},{"latitude":"39.3582","longitude":"-76.4455","address1":"9919 Pulaski Highway"},{"latitude":"39.15705","longitude":"-77.21276","address1":"880 Russell Avenue"},{"latitude":"39.0325","longitude":"-76.9088","address1":"10925 Baltimore Avenue (Route 1)"},{"latitude":"39.1557","longitude":"-76.7308","address1":"7077 Arundel Mills Circle"},{"latitude":"39.4014","longitude":"-77.4086","address1":"10 Monocacy Blvd"},{"latitude":"42.5563","longitude":"-70.9773","address1":"11 Newbury Street (Route 1)"},{"latitude":"42.1325","longitude":"-72.6212","address1":"119 Daggett Drive"},{"latitude":"42.1367","longitude":"-71.0665","address1":"120 Stockwell Drive"},{"latitude":"42.395","longitude":"-71.2655","address1":"71 Second Avenue"},{"latitude":"42.2313","longitude":"-71.1733","address1":"200 Legacy Blvd"},{"latitude":"42.397","longitude":"-71.0725","address1":"2 Mystic View Road"},{"latitude":"42.6052","longitude":"-83.29417","address1":"2343 South Telegraph Rd"},{"latitude":"42.23013","longitude":"-83.74194","address1":"771 Airport Blvd"},{"latitude":"42.5345","longitude":"-83.44475","address1":"3000 Commerce Crossing"},{"latitude":"42.6295","longitude":"-82.9791","address1":"45460 Market Street"},{"latitude":"42.7062","longitude":"-83.2962","address1":"400 Brown Road"},{"latitude":"42.382","longitude":"-83.3323","address1":"13700 Middlebelt Road"},{"latitude":"42.43446","longitude":"-83.43347","address1":"20000 Haggerty Rd"},{"latitude":"42.516","longitude":"-83.1167","address1":"30550 Stephenson Highway"},{"latitude":"42.4966","longitude":"-82.935","address1":"27118 Gratiot Avenue"},{"latitude":"42.876","longitude":"-85.7635","address1":"4901 Wilson Avenue"},{"latitude":"42.91255","longitude":"-85.54279","address1":"5100 28th Street SE"},{"latitude":"42.5039","longitude":"-83.7615","address1":"6700 Whitmore Lake Rd"},{"latitude":"45.02817","longitude":"-93.04094","address1":"1431 Beam Ave"},{"latitude":"44.74889","longitude":"-93.29339","address1":"14050 Burnhaven Dr"},{"latitude":"46.34849","longitude":"-94.24834","address1":"13650 Elder Drive"},{"latitude":"44.04501","longitude":"-92.51919","address1":"2020 Commerce Dr NW"},{"latitude":"45.1993","longitude":"-93.3487","address1":"12547 Riverdale Blvd."},{"latitude":"44.9671","longitude":"-93.3533","address1":"5801 16th Street West"},{"latitude":"45.0917","longitude":"-93.4242","address1":"11330 Fountains Dr N"},{"latitude":"44.86207","longitude":"-93.43525","address1":"12011 Technology Drive"},{"latitude":"38.59605","longitude":"-90.50513","address1":"301 Highlands Blvd Drive"},{"latitude":"38.5083","longitude":"-90.3392","address1":"4200 Rusty Road"},{"latitude":"39.0362","longitude":"-94.3567","address1":"19040 E. Valley View Pkwy"},{"latitude":"39.0672","longitude":"-94.5815","address1":"241 East Linwood Blvd"},{"latitude":"38.7968","longitude":"-90.6076","address1":"200 Costco Way"},{"latitude":"46.6165","longitude":"-112.002","address1":"2195 E Custer Ave"},{"latitude":"46.895","longitude":"-114.0381","address1":"3220 N. Reserve St"},{"latitude":"45.7535","longitude":"-108.5741","address1":"2290 King Avenue West"},{"latitude":"48.23441","longitude":"-114.33075","address1":"2330 Highway 93 N"},{"latitude":"45.71301","longitude":"-111.07001","address1":"2505 Catron Street"},{"latitude":"41.26339","longitude":"-96.10451","address1":"12300 West Dodge Rd"},{"latitude":"39.11635","longitude":"-119.77737","address1":"700 Old Clear Creek Road"},{"latitude":"39.5036","longitude":"-119.7845","address1":"2200 Harvard Way"},{"latitude":"36.17095","longitude":"-115.16097","address1":"222 S Martin Luther King Blvd"},{"latitude":"39.57939","longitude":"-119.74042","address1":"4810 Galleria Parkway"},{"latitude":"36.069","longitude":"-115.0373","address1":"791 Marks Street"},{"latitude":"36.1626","longitude":"-115.333","address1":"801 S. Pavilion Center Drive"},{"latitude":"36.2783","longitude":"-115.2093","address1":"6555 N Decatur Blvd"},{"latitude":"42.7022","longitude":"-71.4429","address1":"311 Daniel Webster Highway"},{"latitude":"39.71028","longitude":"-74.28637","address1":"245 Stafford Park Blvd"},{"latitude":"40.36067","longitude":"-74.30361","address1":"18 Route 9 North"},{"latitude":"40.88843","longitude":"-74.2513","address1":"77 Willowbrook Boulevard"},{"latitude":"40.4191","longitude":"-74.1708","address1":"2835 Route 35 N."},{"latitude":"40.8765","longitude":"-74.0388","address1":"80 South River Street"},{"latitude":"40.8124","longitude":"-74.38015","address1":"156 SR-10 West"},{"latitude":"40.8315","longitude":"-74.1374","address1":"20 Bridewell Place"},{"latitude":"40.9067","longitude":"-74.5693","address1":"315 Route 15 N."},{"latitude":"40.69325","longitude":"-74.288","address1":"1055 Hudson St"},{"latitude":"40.5634","longitude":"-74.5576","address1":"325 Promenade Blvd."},{"latitude":"40.5306","longitude":"-74.377","address1":"205 Vineyard N"},{"latitude":"40.2332","longitude":"-74.0458","address1":"2361 Hwy 66"},{"latitude":"40.05587","longitude":"-74.15921","address1":"465 Route 70"},{"latitude":"39.9715","longitude":"-74.9079","address1":"100 Centerton Road"},{"latitude":"35.19336","longitude":"-106.65555","address1":"9955 Coors Bypass NW"},{"latitude":"35.13711","longitude":"-106.6142","address1":"1420 Renaissance Boulevard NE"},{"latitude":"35.068","longitude":"-106.5307","address1":"500 Eubank Blvd SE"},{"latitude":"40.7948","longitude":"-73.93225","address1":"517 E 117th St"},{"latitude":"40.7336","longitude":"-73.86391","address1":"61-35 Junction Boulevard"},{"latitude":"40.8601","longitude":"-73.1301","address1":"3000 Middle Country Road"},{"latitude":"40.7442","longitude":"-73.5988","address1":"1250 Old Country Road"},{"latitude":"40.7728","longitude":"-73.0501","address1":"125 Beacon Drive"},{"latitude":"40.75778","longitude":"-73.42185","address1":"625 Broadhollow Road"},{"latitude":"40.80663","longitude":"-73.28685","address1":"10 Garret Place"},{"latitude":"40.8964","longitude":"-73.79425","address1":"1 Industrial Lane"},{"latitude":"40.7648","longitude":"-73.94081","address1":"32-50 Vernon Boulevard"},{"latitude":"41.10824","longitude":"-74.02457","address1":"50 Overlook Boulevard"},{"latitude":"40.63079","longitude":"-73.7394","address1":"605 Rockaway Turnpike"},{"latitude":"40.5726","longitude":"-74.1692","address1":"2975 Richmond Avenue"},{"latitude":"40.65505","longitude":"-74.0087","address1":"976 3rd Avenue"},{"latitude":"40.9733","longitude":"-73.8625","address1":"20 Stew Leonard Drive"},{"latitude":"40.99974","longitude":"-73.66086","address1":"1 Westchester Ave"},{"latitude":"36.0289","longitude":"-78.9147","address1":"1510 North Pointe Drive"},{"latitude":"36.058","longitude":"-79.884","address1":"4201 West Wendover Ave"},{"latitude":"35.1619","longitude":"-80.8846","address1":"500 Tyvola Road"},{"latitude":"36.0649","longitude":"-80.3184","address1":"1085 Hanes Mall Blvd."},{"latitude":"35.1299","longitude":"-80.7038","address1":"2125 Matthews Township Pkwy"},{"latitude":"34.24767","longitude":"-77.87289","address1":"5351 Gingerwood Dr"},{"latitude":"35.818","longitude":"-78.6225","address1":"2838 Wake Forest Rd"},{"latitude":"46.84562","longitude":"-96.90493","address1":"750 23rd Ave East"},{"latitude":"41.67723","longitude":"-83.62623","address1":"3405 West Central Ave"},{"latitude":"41.4607","longitude":"-82.011","address1":"35804 Detroit Road"},{"latitude":"41.5247","longitude":"-81.447","address1":"1409 Golden Gate Blvd."},{"latitude":"39.288","longitude":"-84.452","address1":"1100 East Kemper Road"},{"latitude":"39.2955","longitude":"-84.3033","address1":"9691 Waterstone Blvd"},{"latitude":"41.31316","longitude":"-81.817","address1":"16690 Royalton Rd"},{"latitude":"40.14852","longitude":"-82.97748","address1":"1500 Gemini Place"},{"latitude":"44.057","longitude":"-121.267","address1":"2500 Northeast Highway 20"},{"latitude":"46.14671","longitude":"-123.91547","address1":"1804 SE Ensign Lane"},{"latitude":"43.25955","longitude":"-123.3512","address1":"4141 NE Stephens St."},{"latitude":"45.4352","longitude":"-122.7575","address1":"7850 SW Dartmouth"},{"latitude":"44.0893","longitude":"-123.06493","address1":"2828 Chad Drive"},{"latitude":"45.5592","longitude":"-122.5239","address1":"4849 NE 138th Ave"},{"latitude":"42.3689","longitude":"-122.85855","address1":"3639 Crater Lake Highway"},{"latitude":"44.9187","longitude":"-122.9953","address1":"1010 Hawthorne Avenue SE"},{"latitude":"44.6387","longitude":"-123.0664","address1":"3130 Killdeer Ave"},{"latitude":"45.5355","longitude":"-122.9347","address1":"1255 NE 48th Ave"},{"latitude":"45.333","longitude":"-122.7645","address1":"25900 SW Heather Place"},{"latitude":"45.5087","longitude":"-122.84236","address1":"15901 SW Jenkins Road"},{"latitude":"45.4279","longitude":"-122.5744","address1":"13130 SE 84th Avenue"},{"latitude":"40.23891","longitude":"-75.57714","address1":"14 West Lightcap Road"},{"latitude":"40.1968","longitude":"-75.08091","address1":"100 Veterans Way"},{"latitude":"39.88529","longitude":"-75.53096","address1":"700 Evergreen Dr"},{"latitude":"40.0907","longitude":"-75.3862","address1":"201 Allendale Road"},{"latitude":"40.2377","longitude":"-75.2344","address1":"740 Upper State Road"},{"latitude":"40.0524","longitude":"-76.2564","address1":"1875 Hempstead Road"},{"latitude":"40.31007","longitude":"-76.8026","address1":"5125 Jonestown Road Suite 221"},{"latitude":"40.6909","longitude":"-80.108","address1":"1050 Cranberry Square Drive"},{"latitude":"40.45826","longitude":"-80.16662","address1":"202 Costco Drive"},{"latitude":"40.403","longitude":"-79.9208","address1":"501 W Waterfront Dr"},{"latitude":"34.83584","longitude":"-82.3129","address1":"1021 Woodruff Rd"},{"latitude":"34.94","longitude":"-81.9914","address1":"211 W Blackstock Rd"},{"latitude":"33.706","longitude":"-78.9158","address1":"1021 Oak Forest Lane"},{"latitude":"32.796","longitude":"-80.0358","address1":"3050 Ashley Town Center"},{"latitude":"35.89558","longitude":"-84.13862","address1":"10745 Kingston Pike"},{"latitude":"35.1918","longitude":"-89.795","address1":"2431 North Germantown Parkway"},{"latitude":"35.0462","longitude":"-89.7968","address1":"3775 Hacks Cross Road"},{"latitude":"35.9638","longitude":"-86.8165","address1":"98 Seaboard Lane"},{"latitude":"36.139","longitude":"-86.884","address1":"6670 Charlotte Pike"},{"latitude":"29.57788","longitude":"-98.31858","address1":"15330 IH-35 North"},{"latitude":"29.73281","longitude":"-95.43894","address1":"3836 Richmond Ave"},{"latitude":"32.90704","longitude":"-96.44423","address1":"1225 State Hwy 276"},{"latitude":"33.17432","longitude":"-96.83858","address1":"11220 Dallas Parkway"},{"latitude":"26.19287","longitude":"-98.20213","address1":"1501 West Kelly Ave."},{"latitude":"32.6773","longitude":"-97.409","address1":"5300 Overton Ridge Blvd"},{"latitude":"32.621","longitude":"-96.9102","address1":"250 West Highway 67"},{"latitude":"30.22203","longitude":"-97.8386","address1":"4301 W William Cannon Drive"},{"latitude":"33.0445","longitude":"-96.6999","address1":"3800 N. Central Expressway"},{"latitude":"32.6837","longitude":"-97.113","address1":"600 West Arbrook Blvd"},{"latitude":"32.942","longitude":"-97.1114","address1":"2601 E. State Hwy 114"},{"latitude":"29.9547","longitude":"-95.5472","address1":"12405 N. Gessner Rd."},{"latitude":"29.7875","longitude":"-95.5296","address1":"1150 Bunker Hill Road"},{"latitude":"30.3965","longitude":"-97.7445","address1":"10401 Research Blvd"},{"latitude":"32.9976","longitude":"-96.9643","address1":"851 State Hwy 121"},{"latitude":"33.0235","longitude":"-96.8317","address1":"1701 Dallas Pkwy"},{"latitude":"29.57529","longitude":"-98.5954","address1":"5611 Utsa Blvd"},{"latitude":"29.6115","longitude":"-98.4747","address1":"1201 N. Loop 1604 East"},{"latitude":"31.78247","longitude":"-106.41112","address1":"6101 Gateway West Blvd"},{"latitude":"40.12342","longitude":"-111.64922","address1":"273 East 1000 North"},{"latitude":"40.7308","longitude":"-111.9017","address1":"1818 South 300 West"},{"latitude":"40.2807","longitude":"-111.68","address1":"648 East 800 South"},{"latitude":"40.55","longitude":"-111.894","address1":"11100 S. Auto Mall Drive"},{"latitude":"40.69064","longitude":"-111.95796","address1":"3747 South 2700 West"},{"latitude":"37.1223","longitude":"-113.5225","address1":"835 North 3050 East"},{"latitude":"40.3891","longitude":"-111.823","address1":"198 North 1200 East"},{"latitude":"40.8899","longitude":"-111.8945","address1":"573 West 100 North"},{"latitude":"40.6576","longitude":"-111.8901","address1":"5201 South Intermountain Drive"},{"latitude":"41.1963","longitude":"-111.9783","address1":"3656 Wall Avenue"},{"latitude":"44.5044","longitude":"-73.1749","address1":"218 Lower Mountain View Drive"},{"latitude":"37.51183","longitude":"-77.60701","address1":"1401 Mall Dr"},{"latitude":"36.8516","longitude":"-76.1995","address1":"850 Glenrock Road"},{"latitude":"38.8494","longitude":"-77.3724","address1":"4725 West Ox Road"},{"latitude":"37.6418","longitude":"-77.5612","address1":"9650 West Broad Street"},{"latitude":"39.024","longitude":"-77.4018","address1":"21398 Price/Cascades Plaza"},{"latitude":"38.7842","longitude":"-77.5168","address1":"10701 Sudley Manor Drive"},{"latitude":"38.73975","longitude":"-77.19781","address1":"7373 Boston Boulevard"},{"latitude":"38.8607","longitude":"-77.0569","address1":"1200 South Fern Street"},{"latitude":"38.43239","longitude":"-78.85564","address1":"1830 Reservoir Street"},{"latitude":"39.15802","longitude":"-78.15818","address1":"251 Front Royal Pike"},{"latitude":"37.10566","longitude":"-76.4963","address1":"12121 Jefferson Avenue"},{"latitude":"38.8959","longitude":"-77.4425","address1":"14390 Chantilly Crossing Lane"},{"latitude":"39.1152","longitude":"-77.5334","address1":"1300 Edwards Ferry Road"},{"latitude":"38.2913","longitude":"-77.5155","address1":"3102 Plank Road #600"},{"latitude":"38.6451","longitude":"-77.29959","address1":"2700 Potomac Mills Circle, Ste 200"},{"latitude":"47.5646","longitude":"-122.3299","address1":"4401 4th Avenue South"},{"latitude":"46.56487","longitude":"-120.49608","address1":"2310 Longfibre Rd"},{"latitude":"47.35381","longitude":"-122.12213","address1":"27520 Covington Way SE"},{"latitude":"46.42271","longitude":"-117.043","address1":"301 Fifth Street"},{"latitude":"47.7757","longitude":"-122.3442","address1":"1175 North 205th Street"},{"latitude":"45.62209","longitude":"-122.47311","address1":"19610 SE 1st St"},{"latitude":"47.55123","longitude":"-122.05289","address1":"1801 10th Avenue NW"},{"latitude":"47.4014","longitude":"-120.281","address1":"375 Highline Drive South"},{"latitude":"47.9042","longitude":"-122.2093","address1":"10200 19th Avenue SE"},{"latitude":"47.82564","longitude":"-122.3108","address1":"19105 Highway 99"},{"latitude":"47.65615","longitude":"-122.681","address1":"10000 Mickelberry Rd. NW"},{"latitude":"48.79765","longitude":"-122.4881","address1":"4299 Guide Meridian Street"},{"latitude":"46.2262","longitude":"-119.2354","address1":"8505A W. Gage Blvd"},{"latitude":"47.4461","longitude":"-122.24915","address1":"400 Costco Drive Suite 150"},{"latitude":"47.2868","longitude":"-122.3109","address1":"35100 Enchanted Parkway South"},{"latitude":"47.3597","longitude":"-122.6064","address1":"10990 Harbor Hill Dr"},{"latitude":"48.07701","longitude":"-123.12605","address1":"955 West Washington St"},{"latitude":"46.9961","longitude":"-122.9172","address1":"5500 Littlerock Road SW"},{"latitude":"48.148","longitude":"-122.19105","address1":"16616 Twin Lakes Ave"},{"latitude":"47.7271","longitude":"-117.41343","address1":"7619 North Division Street"},{"latitude":"47.156","longitude":"-122.3088","address1":"1201 39th SW"},{"latitude":"48.4537","longitude":"-122.3381","address1":"1725 S. Burlington Blvd"},{"latitude":"47.658","longitude":"-117.3327","address1":"5601 East Sprague Avenue"},{"latitude":"47.0595","longitude":"-122.7613","address1":"1470 Marvin Rd NE"},{"latitude":"47.78","longitude":"-122.148","address1":"24008 Snohomish-Woodinville Rd SE"},{"latitude":"47.239","longitude":"-122.374","address1":"3900 20th St. East"},{"latitude":"45.68482","longitude":"-122.60475","address1":"6720 NE 84th Street"},{"latitude":"47.6813","longitude":"-122.1812","address1":"8629 120th Avenue NE"},{"latitude":"47.2248","longitude":"-122.4672","address1":"2219 South 37th Street"},{"latitude":"43.09762","longitude":"-89.52363","address1":"2150 Deming Way"},{"latitude":"43.09202","longitude":"-88.23386","address1":"443 Pewaukee Rd"},{"latitude":"43.1675","longitude":"-89.27331","address1":"2850 Hoepker Rd"},{"latitude":"43.3243","longitude":"-87.9225","address1":"950 Port Washington Rd"}]